Key,Name,Latitude,Longitude,Street Address,City,State,Zip,Type,Phone,Website
1,AFD Station 4,33.75416,-84.37742,309 EDGEWOOD AVE SE,Atlanta,GA,30332,Drop Off,(404) 555 - 3456,www.afd04.atl.ga
2,BOYS & GILRS CLUB W.W. WOOLFOLK,33.73182,-84.43971,1642 RICHLAND RD,Atlanta,GA,30332,Store,(404) 555 - 1234,www.bgc.wool.ga
3,PATHWAY UPPER ROOM CHRISTIAN MINISTRIES,33.70866,-84.41853,1683 SYLVAN RD,Atlanta,GA,30332,Warehouse,(404) 555 - 5432,www.pathways.org
4,PAVILION OF HOPE INC,33.80129,-84.25537,3558 EAST PONCE DE LEON AVE,SCOTTDALE,GA,30079,Warehouse,(404) 555 - 8765,www.pavhope.org
5,D&D CONVENIENCE STORE,33.71747,-84.2521,2426 COLUMBIA DRIVE,DECATUR,GA,30034,Drop Off,(404) 555 - 9876,www.ddconv.com
6,KEEP NORTH FULTON BEAUTIFUL,33.96921,-84.3688,470 MORGAN FALLS RD,Sandy Springs,GA,30302,Store,(770) 555 - 7321,www.knfb.org